{
  "team": [
    {
      "location": "Arizona",
      "city": "Phoenix",
      "logo_url":"https://en.wikipedia.org/wiki/Arizona_Diamondbacks#/media/File:Arizona_Diamondbacks_logo_(low_res).svg",
      "mlb_org": "Arizona Diamondbacks",
      "name": "Diamondbacks"
    },
    {
      "location": "Atlanta",
      "city": "Atlanta",
      "logo_url":"https://en.wikipedia.org/wiki/Atlanta_Braves#/media/File:Atlanta_Braves.svg",
      "mlb_org": "Atlanta Braves",
      "name": "Braves"
    },
    {
      "location": "Baltimore",
      "city": "Baltimore",
      "logo_url":"https://en.wikipedia.org/wiki/Baltimore_Orioles#/media/File:Baltimore_Orioles_cap.svg",
      "mlb_org": "Baltimore Orioles",
      "name": "Orioles"
    },
    {
      "location": "Boston",
      "city": "Boston",
      "logo_url":"https://en.wikipedia.org/wiki/Boston_Red_Sox#/media/File:RedSoxPrimary_HangingSocks.svg",
      "mlb_org": "Boston Red Sox",
      "name": "Red Sox"
    },
    {
      "location": "Chicago",
      "city": "Chicago",
      "logo_url":"https://en.wikipedia.org/wiki/Chicago_Cubs#/media/File:Chicago_Cubs_logo.svg",
      "mlb_org": "Chicago Cubs",
      "name": "Cubs"
    },
    {
      "location": "Chicago",
      "city": "Chicago",
      "logo_url":"https://en.wikipedia.org/wiki/Chicago_White_Sox#/media/File:Chicago_White_Sox.svg",
      "mlb_org": "Chicago White Sox",
      "name": "White Sox"
    },
    {
      "location": "Cincinnati",
      "city": "Cincinnati",
      "logo_url":"https://en.wikipedia.org/wiki/Cincinnati_Reds#/media/File:Cincinnati_Reds_Logo.svg",
      "mlb_org": "Cincinnati Reds",
      "name": "Reds"
    },
    {
      "location": "Cleveland",
      "city": "Cleveland",
      "logo_url":"https://en.wikipedia.org/wiki/Cleveland_Indians#/media/File:Cleveland_Indians_primary_logo.svg",
      "mlb_org": "Cleveland Indians",
      "name": "Indians"
    },
    {
      "location": "Colorado",
      "city": "Denver",
      "logo_url":"https://en.wikipedia.org/wiki/Colorado_Rockies#/media/File:Colorado_Rockies_logo.svg",
      "mlb_org": "Colorado Rockies",
      "name": "Rockies"
    },
    {
      "location": "Detroit",
      "city": "Detroit",
      "logo_url":"https://en.wikipedia.org/wiki/Detroit_Tigers#/media/File:Detroit_Tigers_logo.svg",
      "mlb_org": "Detroit Tigers",
      "name": "Tigers"
    },
    {
      "location": "Houston",
      "city": "Houston",
      "logo_url":"https://en.wikipedia.org/wiki/Houston_Astros#/media/File:Houston-Astros-Logo.svg",
      "mlb_org": "Houston Astros",
      "name": "Astros"
    },
    {
      "location": "Kansas City",
      "city": "Kansas City",
      "logo_url":"https://en.wikipedia.org/wiki/Kansas_City_Royals#/media/File:Kansas_City_Royals.svg",
      "mlb_org": "Kansas City Royals",
      "name": "Royals"
    },
    {
      "location": "Los Angeles",
      "city": "Anaheim",
      "logo_url":"https://en.wikipedia.org/wiki/Los_Angeles_Angels#/media/File:Los_Angeles_Angels_of_Anaheim.svg",
      "mlb_org": "Los Angeles Angels",
      "name": "Angels"
    },
    {
      "location": "Los Angeles",
      "city": "Los Angeles",
      "logo_url":"https://en.wikipedia.org/wiki/Los_Angeles_Dodgers#/media/File:Los_Angeles_Dodgers_logo_(low_res).svg",
      "mlb_org": "Los Angeles Dodgers",
      "name": "Dodgers"
    },
    {
      "location": "Miami",
      "city": "Miami",
      "logo_url":"",
      "mlb_org": "Miami Marlins",
      "name": "Marlins"
    },
    {
      "location": "Milwaukee",
      "city": "Milwaukee",
      "logo_url":"https://en.wikipedia.org/wiki/Miami_Marlins#/media/File:Marlins_team_logo.svg",
      "mlb_org": "Milwaukee Brewers",
      "name": "Brewers"
    },
    {
      "location": "Minnesota",
      "city": "Minneapolis",
      "logo_url":"https://en.wikipedia.org/wiki/Minnesota_Twins#/media/File:Minnesota_Twins_logo_(low_res).svg",
      "mlb_org": "Minnesota Twins",
      "name": "Twins"
    },
    {
      "location": "New York",
      "city": "New York",
      "logo_url":"https://en.wikipedia.org/wiki/New_York_Mets#/media/File:New_York_Mets.svg",
      "mlb_org": "New York Mets",
      "name": "Mets"
    },
    {
      "location": "New York",
      "city": "Bronx",
      "logo_url":"https://en.wikipedia.org/wiki/New_York_Yankees#/media/File:NewYorkYankees_PrimaryLogo.svg",
      "mlb_org": "New York Yankees",
      "name": "Yankees"
    },
    {
      "location": "Oakland",
      "city": "Oakland",
      "logo_url":"https://en.wikipedia.org/wiki/Oakland_Athletics#/media/File:Oakland_A's_logo.svg",
      "mlb_org": "Oakland Athletics",
      "name": "Athletics"
    },
    {
      "location": "Philadelphia",
      "city": "Philadelphia",
      "logo_url":"https://en.wikipedia.org/wiki/Philadelphia_Phillies#/media/File:Philadelphia_Phillies_(2019)_logo.svg",
      "mlb_org": "Philadelphia Phillies",
      "name": "Phillies"
    },
    {
      "location": "Pittsburgh",
      "city": "Pittsburgh",
      "logo_url":"https://en.wikipedia.org/wiki/Pittsburgh_Pirates#/media/File:Pittsburgh_Pirates_logo_2014.svg",
      "mlb_org": "Pittsburgh Pirates",
      "name": "Pirates"
    },
    {
      "location": "San Diego",
      "city": "San Diego",
      "logo_url":"https://en.wikipedia.org/wiki/San_Diego_Padres#/media/File:SD_Logo_Brown.svg",
      "mlb_org": "San Diego Padres",
      "name": "Padres"
    },
    {
      "location": "San Francisco",
      "city": "San Francisco",
      "logo_url":"https://en.wikipedia.org/wiki/San_Francisco_Giants#/media/File:San_Francisco_Giants_Logo.svg",
      "mlb_org": "San Francisco Giants",
      "name": "Giants"
    },
    {
      "location": "Seattle",
      "city": "Seattle",
      "logo_url":"https://en.wikipedia.org/wiki/Seattle_Mariners#/media/File:Seattle_Mariners_logo_(low_res).svg",
      "mlb_org": "Seattle Mariners",
      "name": "Mariners"
    },
    {
      "location": "St. Louis",
      "city": "St. Louis",
      "logo_url":"https://en.wikipedia.org/wiki/St._Louis_Cardinals#/media/File:St._Louis_Cardinals_logo.svg",
      "mlb_org": "St. Louis Cardinals",
      "name": "Cardinals"
    },
    {
      "location": "Tampa Bay",
      "city": "Tampa Bay",
      "logo_url":"https://en.wikipedia.org/wiki/Tampa_Bay_Rays#/media/File:Tampa_Bay_Rays.svg",
      "mlb_org": "Tampa Bay Rays",
      "name": "Rays"
    },
    {
      "location": "Texas",
      "city": "Arlington",
      "logo_url":"https://en.wikipedia.org/wiki/Texas_Rangers_(baseball)#/media/File:Texas_Rangers.svg",
      "mlb_org": "Texas Rangers",
      "name": "Rangers"
    },
    {
      "location": "Toronto",
      "city": "Toronto",
      "logo_url":"https://en.wikipedia.org/wiki/Toronto_Blue_Jays#/media/File:Blue_Jays.svg",
      "mlb_org": "Toronto Blue Jays",
      "name": "Blue Jays"
    },
    {
      "location": "Washington",
      "city": "Washington",
      "logo_url":"https://en.wikipedia.org/wiki/Washington_Nationals#/media/File:Washington_Nationals_logo_(low_res).svg",
      "mlb_org": "Washington Nationals",
      "name": "Nationals"
    }
  ]
}